https://applications002.brest-metropole.fr/WIPOD01/Transport/REST/getStops_route?format=json&route_id=11&trip_headsign=Place%20Strasbourg

[{"Stop_id":"KERJAN_1","Stop_lat":"48.3988090954692","Stop_lon":"-4.40512938778858","Stop_name":"Kerjean"},{"Stop_id":"KERIGL_1","Stop_lat":"48.4028541052547","Stop_lon":"-4.39878107435462","Stop_name":"Keriguel"},{"Stop_id":"JESEQL_1","Stop_lat":"48.404258522774","Stop_lon":"-4.3929994016611","Stop_name":"Jezequel"},{"Stop_id":"MEDATQ_1","Stop_lat":"48.4025750893606","Stop_lon":"-4.39198283199235","Stop_name":"Mediatheque"},{"Stop_id":"CORMO_1","Stop_lat":"48.4041321907848","Stop_lon":"-4.38715579337449","Stop_name":"Cormorans"},{"Stop_id":"RESIST_1","Stop_lat":"48.4066611758521","Stop_lon":"-4.38979905721473","Stop_name":"Resistance"},{"Stop_id":"PSNCF_1","Stop_lat":"48.4070698613371","Stop_lon":"-4.39370069026489","Stop_name":"Pont SNCF"},{"Stop_id":"KHN_M_1","Stop_lat":"48.4076326752171","Stop_lon":"-4.39600948981146","Stop_name":"Kerhuon Mairie"},{"Stop_id":"GHENO_1","Stop_lat":"48.4109009187729","Stop_lon":"-4.39803043628045","Stop_name":"Guehenno"},{"Stop_id":"REUN_1","Stop_lat":"48.4129921757429","Stop_lon":"-4.39759547514812","Stop_name":"Reun-ar-C'hoat"},{"Stop_id":"KEROUM_1","Stop_lat":"48.4123038149692","Stop_lon":"-4.39448408557504","Stop_name":"Keroumen"},{"Stop_id":"FLMING_1","Stop_lat":"48.4103538991489","Stop_lon":"-4.39434103591758","Stop_name":"Fleming"},{"Stop_id":"LEREUN_1","Stop_lat":"48.4086374987074","Stop_lon":"-4.39563763869201","Stop_name":"Le Reun"},{"Stop_id":"KHN_B_1","Stop_lat":"48.4080392569077","Stop_lon":"-4.39884030716171","Stop_name":"Kerhuon Bourg"},{"Stop_id":"DANTON_1","Stop_lat":"48.4078545024374","Stop_lon":"-4.4020691923041","Stop_name":"Danton"},{"Stop_id":"KCAO_1","Stop_lat":"48.4059575414359","Stop_lon":"-4.40872256568056","Stop_name":"Kerscao"},{"Stop_id":"KRUHEL_1","Stop_lat":"48.4039331828792","Stop_lon":"-4.41176769018716","Stop_name":"Kerhuel"},{"Stop_id":"KMADEC_1","Stop_lat":"48.4022234237274","Stop_lon":"-4.41703511917696","Stop_name":"Kermadec"},{"Stop_id":"BARBE_1","Stop_lat":"48.4008215185692","Stop_lon":"-4.41929300592399","Stop_name":"Ste Barbe"},{"Stop_id":"MBLANC_1","Stop_lat":"48.3967960301759","Stop_lon":"-4.42072333262699","Stop_name":"Moulin Blanc"},{"Stop_id":"RODY_1","Stop_lat":"48.3979764685576","Stop_lon":"-4.43221819469313","Stop_name":"Rody"},{"Stop_id":"PALAR_3","Stop_lat":"48.3973035914256","Stop_lon":"-4.43638590007453","Stop_name":"Palaren"},{"Stop_id":"JARDIN_1","Stop_lat":"48.4011156824037","Stop_lon":"-4.44619067030207","Stop_name":"Jardin Botanique"},{"Stop_id":"RTE_QP_1","Stop_lat":"48.4012265678811","Stop_lon":"-4.45021647731353","Stop_name":"Rte de Quimper"},{"Stop_id":"FLOCH_1","Stop_lat":"48.4012053569014","Stop_lon":"-4.45449617599455","Stop_name":"Floch"},{"Stop_id":"LEBOT_1","Stop_lat":"48.4020174477554","Stop_lon":"-4.45934515773679","Stop_name":"Le Bot Haut"},{"Stop_id":"STFBLE1","Stop_lat":"48.4023026384879","Stop_lon":"-4.46268909726764","Stop_name":"Stade F.Le Ble"},{"Stop_id":"ST_RQ_1","Stop_lat":"48.4025074940882","Stop_lon":"-4.46585998429174","Stop_name":"Strasbourg"},{"Stop_id":"ST_R","Stop_lat":"48.4021509486912","Stop_lon":"-4.46734495437654","Stop_name":"Place Strasbourg"},{"Stop_id":"ST_JJ","Stop_lat":"48.4019800554474","Stop_lon":"-4.4679596458978","Stop_name":"Place Strasbourg"}]