https://applications002.brest-metropole.fr/WIPOD01/Transport/REST/getStops_route?format=json&route_id=7&trip_headsign=Libert%C3%A9%20par%20Lamb%C3%A9

[{"Stop_id":"PGARE_2","Stop_lat":"48.4313423057964","Stop_lon":"-4.51097945690466","Stop_name":"Petite Gare"},{"Stop_id":"PGARE_1","Stop_lat":"48.4314681244808","Stop_lon":"-4.51083324301478","Stop_name":"Petite Gare"},{"Stop_id":"FORTIN_1","Stop_lat":"48.4335076755304","Stop_lon":"-4.51005675538857","Stop_name":"Fortin"},{"Stop_id":"RTE_BH_1","Stop_lat":"48.4363320338615","Stop_lon":"-4.50866442407313","Stop_name":"Rte de Bohars"},{"Stop_id":"HOP_1","Stop_lat":"48.4357717116482","Stop_lon":"-4.50510547922367","Stop_name":"Hopital Tromeur"},{"Stop_id":"IROISE_1","Stop_lat":"48.4355105073615","Stop_lon":"-4.50276571270833","Stop_name":"Clinique Iroise"},{"Stop_id":"KERVEN_1","Stop_lat":"48.4323889770471","Stop_lon":"-4.50072912046249","Stop_name":"Petit Kerven"},{"Stop_id":"MARREG_1","Stop_lat":"48.4302386363418","Stop_lon":"-4.50077272470922","Stop_name":"Marregues"},{"Stop_id":"G_KERI_1","Stop_lat":"48.4266913262995","Stop_lon":"-4.49938576864636","Stop_name":"Grand Kerizac"},{"Stop_id":"PRAJEN_1","Stop_lat":"48.4247137103576","Stop_lon":"-4.50251637674598","Stop_name":"Du Prajen"},{"Stop_id":"MESSIO_1","Stop_lat":"48.4196745161631","Stop_lon":"-4.50863470590606","Stop_name":"Messioual"},{"Stop_id":"MESSIO_3","Stop_lat":"48.4197704925864","Stop_lon":"-4.5062069006464","Stop_name":"Messioual"},{"Stop_id":"KERVAO_1","Stop_lat":"48.4211001075777","Stop_lon":"-4.50366966792114","Stop_name":"Kervao"},{"Stop_id":"LOSCOA_1","Stop_lat":"48.4222520112013","Stop_lon":"-4.4993735629593","Stop_name":"Loscoat"},{"Stop_id":"KERCAS_1","Stop_lat":"48.4213761017152","Stop_lon":"-4.49767251476875","Stop_name":"Kercastrec"},{"Stop_id":"ROSTAN_1","Stop_lat":"48.419170350233","Stop_lon":"-4.49571604124695","Stop_name":"Rostand"},{"Stop_id":"BRASSE_1","Stop_lat":"48.4176003917577","Stop_lon":"-4.49446658432837","Stop_name":"Brasserie"},{"Stop_id":"FFI_2","Stop_lat":"48.4154103148246","Stop_lon":"-4.49099413507491","Stop_name":"Place des FFI"},{"Stop_id":"CHAPAL_2","Stop_lat":"48.4156297864098","Stop_lon":"-4.48829801936894","Stop_name":"Chapalain"},{"Stop_id":"CHRIST_2","Stop_lat":"48.4124370768453","Stop_lon":"-4.48655202539162","Stop_name":"St Christophe"},{"Stop_id":"MIRAB_2","Stop_lat":"48.4102228912362","Stop_lon":"-4.48582877636277","Stop_name":"Mirabeau"},{"Stop_id":"BLUM_2","Stop_lat":"48.4080121981506","Stop_lon":"-4.48520092649794","Stop_name":"Blum"},{"Stop_id":"KLYCEE_2","Stop_lat":"48.4051971140389","Stop_lon":"-4.48472455221012","Stop_name":"Kerichen Lycee"},{"Stop_id":"ST_LUC_2","Stop_lat":"48.4029984693746","Stop_lon":"-4.48435589303564","Stop_name":"St Luc"},{"Stop_id":"MESSI_2","Stop_lat":"48.4003722877561","Stop_lon":"-4.48233222559891","Stop_name":"Messidou"},{"Stop_id":"KERIGO_2","Stop_lat":"48.397402949026","Stop_lon":"-4.4829607205961","Stop_name":"Kerigonan"},{"Stop_id":"MALAKO_R","Stop_lat":"48.3965489231385","Stop_lon":"-4.48383840280048","Stop_name":"Malakoff"},{"Stop_id":"HDEVIL_1","Stop_lat":"48.3923104372","Stop_lon":"-4.48472101077096","Stop_name":"Hotel de Ville"},{"Stop_id":"I_2","Stop_lat":"48.3913294271505","Stop_lon":"-4.48592073814446","Stop_name":"Liberte Frezier"}]