https://applications002.brest-metropole.fr/WIPOD01/Transport/REST/getStops_route?format=json&route_id=1&trip_he
adsign=Fort%20Montbarey

[{"Stop_id":"CHR_B","Stop_lat":"48.4002374260175","Stop_lon":"-4.52983022664776","Stop_name":"Hopital Cavale"},{"Stop_id":"CHR_A1","Stop_lat":"48.4007932983012","Stop_lon":"-4.5294289930181","Stop_name":"Hopital Cavale 2"},{"Stop_id":"CHR_R2","Stop_lat":"48.4015228279711","Stop_lon":"-4.52620439450055","Stop_name":"Hopital Cavale 1"},{"Stop_id":"E_COM_1","Stop_lat":"48.4068474825034","Stop_lon":"-4.52171315122441","Stop_name":"Ecole Commerce"},{"Stop_id":"GASCO_1","Stop_lat":"48.406561130276","Stop_lon":"-4.51748717520662","Stop_name":"Gascogne"},{"Stop_id":"DAUPHI_1","Stop_lat":"48.4051917483473","Stop_lon":"-4.51558596466733","Stop_name":"Dauphine"},{"Stop_id":"TARENT_1","Stop_lat":"48.4053551551387","Stop_lon":"-4.5106059534158","Stop_name":"Tarente"},{"Stop_id":"PATINO_1","Stop_lat":"48.4034367000152","Stop_lon":"-4.50821280893841","Stop_name":"Patinoire"},{"Stop_id":"KMGUY_1","Stop_lat":"48.4012177417074","Stop_lon":"-4.50105049545261","Stop_name":"Kermenguy"},{"Stop_id":"BOUGUE_1","Stop_lat":"48.4001068340002","Stop_lon":"-4.49811315139232","Stop_name":"Bouguen"},{"Stop_id":"UNIVER_1","Stop_lat":"48.3989421592674","Stop_lon":"-4.49485721442874","Stop_name":"Universites"},{"Stop_id":"ALB1ER_1","Stop_lat":"48.3970822650649","Stop_lon":"-4.48709268917239","Stop_name":"Albert 1er"},{"Stop_id":"MALAKO_1","Stop_lat":"48.3962447702426","Stop_lon":"-4.48425940810155","Stop_name":"Malakoff"},{"Stop_id":"HDEVIL_1","Stop_lat":"48.3923104372","Stop_lon":"-4.48472101077096","Stop_name":"Hotel de Ville"},{"Stop_id":"H","Stop_lat":"48.3909017945295","Stop_lon":"-4.48675915096017","Stop_name":"Liberte Place"},{"Stop_id":"QUARTZ_1","Stop_lat":"48.3895813563452","Stop_lon":"-4.48509613085676","Stop_name":"Liberte Quartz"},{"Stop_id":"KENNED_1","Stop_lat":"48.3875058285745","Stop_lon":"-4.4826029225875","Stop_name":"Kennedy Gare"},{"Stop_id":"GARE_1","Stop_lat":"48.3881047936157","Stop_lon":"-4.48067588063392","Stop_name":"Gare"},{"Stop_id":"KENNED_4","Stop_lat":"48.3875058285745","Stop_lon":"-4.4826029225875","Stop_name":"Kennedy Gare"},{"Stop_id":"RAMPES_1","Stop_lat":"48.3831308122998","Stop_lon":"-4.48770813883592","Stop_name":"Rampes"},{"Stop_id":"MUSEEM_1","Stop_lat":"48.3829481437792","Stop_lon":"-4.49241248764501","Stop_name":"Musee Marine"},{"Stop_id":"FLIBRE_1","Stop_lat":"48.3842904111048","Stop_lon":"-4.49307577465536","Stop_name":"Francais Libres"},{"Stop_id":"RECOUV_1","Stop_lat":"48.3843700890946","Stop_lon":"-4.49963006228317","Stop_name":"Recouvrance"},{"Stop_id":"MAISSI_1","Stop_lat":"48.3841436246644","Stop_lon":"-4.50290622826237","Stop_name":"Maissin"},{"Stop_id":"JAVOUH_1","Stop_lat":"48.3832696089242","Stop_lon":"-4.50365883245251","Stop_name":"Javouhey"},{"Stop_id":"LOTTI_2","Stop_lat":"48.3827635345654","Stop_lon":"-4.50646474088149","Stop_name":"Loti"},{"Stop_id":"F_ESPE_1","Stop_lat":"48.3823268529846","Stop_lon":"-4.50869713429927","Stop_name":"Fr. d' Esperey"},{"Stop_id":"KERANG_1","Stop_lat":"48.3813236085272","Stop_lon":"-4.51058424339937","Stop_name":"Kerangoff"},{"Stop_id":"P_BERT_1","Stop_lat":"48.3814243131997","Stop_lon":"-4.51397087316147","Stop_name":"Paul Bert"},{"Stop_id":"KERBON_1","Stop_lat":"48.3822942800909","Stop_lon":"-4.51530434237367","Stop_name":"Kerbonne"},{"Stop_id":"COSMAO_1","Stop_lat":"48.3829588215217","Stop_lon":"-4.51722057231074","Stop_name":"Cosmao Pretot"},{"Stop_id":"CAST_D_1","Stop_lat":"48.3826697411492","Stop_lon":"-4.52109809123342","Stop_name":"Castel-an-Daol"},{"Stop_id":"BOURAY_1","Stop_lat":"48.3816889296933","Stop_lon":"-4.52693045924194","Stop_name":"Bourayne"},{"Stop_id":"KERZUD_1","Stop_lat":"48.3809285018527","Stop_lon":"-4.53130135219871","Stop_name":"Kerzudal"},{"Stop_id":"STPIER_1","Stop_lat":"48.3797130702005","Stop_lon":"-4.53727863849589","Stop_name":"St Pierre"},{"Stop_id":"PFLEUR_1","Stop_lat":"48.3798375271705","Stop_lon":"-4.53993685762389","Stop_name":"Panier Fleuri"},{"Stop_id":"MONTB_1","Stop_lat":"48.3786778302348","Stop_lon":"-4.5443361442329","Stop_name":"Fort Montbarey"}]