https://applications002.brest-metropole.fr/WIPOD01/Transport/REST/getStops_route?format=json&route_id=15&trip_headsign=Fort%20Montbarey

[{"Stop_id":"PLZ_1","Stop_lat":"48.3818743372479","Stop_lon":"-4.62227166399348","Stop_name":"Plouzane Bourg"},{"Stop_id":"MOUETT_2","Stop_lat":"48.3816188117956","Stop_lon":"-4.61773915476133","Stop_name":"Mouettes"},{"Stop_id":"LOURCH_1","Stop_lat":"48.3803408572876","Stop_lon":"-4.61828705024098","Stop_name":"Lourc'h"},{"Stop_id":"LANDRE_1","Stop_lat":"48.3785671749809","Stop_lon":"-4.61882307984726","Stop_name":"Landrean"},{"Stop_id":"CLOITR_1","Stop_lat":"48.3784769858357","Stop_lon":"-4.61500388340581","Stop_name":"Cloitre"},{"Stop_id":"ABER_1","Stop_lat":"48.3810194976783","Stop_lon":"-4.61367582650149","Stop_name":"Aber-Ildut"},{"Stop_id":"PENHU_2","Stop_lat":"48.3819595430824","Stop_lon":"-4.61197177477328","Stop_name":"Penhuel"},{"Stop_id":"MALMAN_2","Stop_lat":"48.382565656121","Stop_lon":"-4.60430205644252","Stop_name":"Malmanche"},{"Stop_id":"PLZMAI_7","Stop_lat":"48.3802098007912","Stop_lon":"-4.60001905828754","Stop_name":"Plouzane Mairie"},{"Stop_id":"KERAL_2","Stop_lat":"48.3790703867585","Stop_lon":"-4.58917790517607","Stop_name":"Kerallan"},{"Stop_id":"SYVOM_2","Stop_lat":"48.3773610895321","Stop_lon":"-4.58632288984812","Stop_name":"Sycomores"},{"Stop_id":"BLEUETS2","Stop_lat":"48.3741147196478","Stop_lon":"-4.58428041868818","Stop_name":"Bleuets"},{"Stop_id":"MYOSO_2","Stop_lat":"48.3729696181025","Stop_lon":"-4.58962867547454","Stop_name":"Myosotis"},{"Stop_id":"PLCOM_2","Stop_lat":"48.3715337078438","Stop_lon":"-4.59056259718988","Stop_name":"Commerce"},{"Stop_id":"ENCLOS_2","Stop_lat":"48.3692559484936","Stop_lon":"-4.58847242154093","Stop_name":"Enclos"},{"Stop_id":"TRINIT_2","Stop_lat":"48.3707417361035","Stop_lon":"-4.58577053934614","Stop_name":"La Trinite"},{"Stop_id":"KERAMA_2","Stop_lat":"48.3724927629437","Stop_lon":"-4.58024531843234","Stop_name":"Keramaze"},{"Stop_id":"BRAZ","Stop_lat":"48.3738071102575","Stop_lon":"-4.57600311028451","Stop_name":"Lannevel-Braz"},{"Stop_id":"COATU_2","Stop_lat":"48.3740660197559","Stop_lon":"-4.56759767321927","Stop_name":"Coatuelen"},{"Stop_id":"CHDEAU_1","Stop_lat":"48.3749552673467","Stop_lon":"-4.55674219562137","Stop_name":"Chateau d'eau"},{"Stop_id":"P_PLZ_1","Stop_lat":"48.3762784210229","Stop_lon":"-4.55325911220877","Stop_name":"Porte Plouzane"},{"Stop_id":"MONTB_2","Stop_lat":"48.3784610031223","Stop_lon":"-4.54418564435622","Stop_name":"Fort Montbarey"}]